OBJECTID,ID,ADDRESS,TERMINAL_NUMBER,LATITUDE,LONGITUDE,INSTALLED,LOCKED,INSTALL_DATE,REMOVAL_DATE,TEMPORARY_INSTALL,NUMBER_OF_BIKES,NUMBER_OF_EMPTY_DOCKS,X,Y,SE_ANNO_CAD_DATA
169043944,406,Commonwealth Ave & Oak St,31906,38.812711,-77.061715,YES,NO,,,NO,12,7,394640.0521,127217.4066,
169043945,407,Commonwealth & E Monroe Ave,31913,38.820058,-77.062821,YES,NO,,,NO,9,6,394544.5573,128033.0364,
169043946,408,4th St & Madison Dr NW,31288,38.890493,-77.017253,YES,NO,,,NO,10,3,398503.2087,135850.0906,
169043947,409,Henry Bacon Dr & Lincoln Memorial Circle NW,31289,38.890544,-77.049379,YES,NO,,,NO,4,14,395716.1071,135856.7692,
169043948,410,17th St & Independence Ave SW,31290,38.888097,-77.038325,YES,NO,,,NO,4,13,396674.9868,135584.6724,
169043949,411,Franklin & S Washington St,31907,38.798133,-77.0487,YES,NO,,,NO,17,2,395769.5415,125598.4735,
169043950,412,Mount Vernon Ave & Four Mile Run Park,31909,38.843422,-77.064016,YES,NO,,,NO,5,9,394442.601,130626.6693,
169043951,413,New Jersey Ave & L St NW,31642,38.903598,-77.01397,YES,NO,,,NO,16,7,398788.2493,137304.8012,
169043952,414,Mount Vernon Ave & Bruce St,31912,38.841291,-77.063093,YES,NO,,,NO,11,3,394522.5655,130390.0578,
169043953,415,Lee Center,31914,38.797557,-77.053766,YES,NO,,,NO,15,0,395329.432,125534.781,
169043954,416,Powhatan St & Bashford Ln,31915,38.818748,-77.047783,YES,NO,,,NO,11,4,395850.397,127886.8268,
169043955,417,Potomac & Swann Ave,31916,38.829545,-77.047844,YES,NO,,,NO,14,2,395845.7278,129085.3677,
169043956,418,14th & Irving St NW,31124,38.928552,-77.032224,YES,NO,,,NO,0,31,397205.8846,140075.3037,
169043957,419,16th & K St NW,31291,38.90268,-77.035737,YES,NO,,,NO,6,16,396900.151,137203.4098,
169043958,420,Wisconsin Ave & Brandywine St NW,31319,38.949813,-77.080217,YES,NO,,,NO,4,21,393046.5273,142438.0242,
169043959,421,24th & R St NE / National Arboretum,31520,38.91263,-76.971923,YES,NO,,,NO,7,10,402435.0762,138307.7088,
169043960,422,Division Ave & Foote St NE,31713,38.897407,-76.925907,YES,NO,,,NO,2,13,406427.3461,136620.0661,
169043961,423,16th & Q St SE / Anacostia HS,31812,38.870695,-76.982359,YES,NO,,,NO,15,8,401530.8771,133652.3679,
169043962,424,Spring Hill Metro,32200,38.929261,-77.240654,YES,NO,,,NO,9,6,379133.3291,140181.02,
169043963,425,Westpark Dr & Leesburg Pike,32201,38.92403,-77.235955,YES,NO,,,NO,6,5,379539.269,139599.2725,
169043964,427,Tysons One Pl & Chain Bridge Rd,32203,38.919475,-77.221179,YES,NO,,,NO,7,4,380819.3354,139090.4224,
169043965,428,Tysons Corner Station,32204,38.920939,-77.222115,YES,NO,,,NO,5,6,380738.561,139253.1354,
169043966,429,Westpark & Jones Branch Dr,32205,38.924437,-77.217664,YES,NO,,,NO,4,7,381125.4694,139640.5122,
169043967,430,Jones Branch & Westbranch Dr,32206,38.931911,-77.219261,YES,NO,,,NO,7,6,380988.98,140470.5194,
169043968,431,Westpark & Park Run Dr,32207,38.928919,-77.225394,YES,NO,,,NO,7,4,380456.3994,140139.6776,
169043969,432,Tysons West Transit Center,32208,38.932636,-77.231825,YES,NO,,,NO,5,6,379899.8254,140553.6918,
169043970,433,North Shore & Cameron Crescent Dr/Crescent Apartments,32209,38.970046,-77.338686,YES,NO,,,NO,9,2,370649.9832,144735.4649,
169043971,434,Town Center Pkwy & Bowman Towne Dr,32210,38.962524,-77.361902,YES,NO,,,NO,6,9,368634.8196,143908.1787,
169043972,435,Reston Regional Library,32211,38.962095,-77.358815,YES,NO,,,NO,4,11,368902.1739,143859.4999,
169043973,436,New Dominion Pkwy & Fountain Dr,32212,38.960574,-77.356324,YES,NO,,,NO,6,9,369117.4041,143689.8105,
169043974,437,Sunset Hills & Old Reston Ave,32213,38.955079,-77.351649,YES,NO,,,NO,2,13,369520.2345,143078.2481,
169043975,438,Reston Town Center Transit Station,32214,38.957037,-77.359718,YES,NO,,,NO,3,14,368821.7005,143298.3275,
169043976,439,1st & D St SE,31643,38.884916,-77.005965,YES,NO,,,NO,12,4,399482.4634,135230.8757,
169043977,440,Reston Station,32215,38.948363,-77.338119,YES,NO,,,NO,24,11,370690.2031,142328.2857,
169043978,441,Library St & Freedom Dr,32216,38.959633,-77.358741,YES,NO,,,NO,11,8,368907.5133,143586.172,
169043979,442,Sunset Hills Rd & Discovery Square,32217,38.95534,-77.357611,YES,NO,,,NO,6,9,369003.5843,143109.2288,
169043980,443,22nd St & Constitution Ave NW,31292,38.892441,-77.048947,YES,NO,,,NO,5,15,395753.6983,136067.3308,
169043981,444,61st St & Banks Pl NE,31714,38.891805,-76.913563,YES,NO,,,NO,10,9,407498.7397,135999.1416,
169043982,445,Temporary Rd & Old Reston Ave,32218,38.960084,-77.353414,YES,NO,,,NO,12,3,369369.4019,143634.4359,
169043983,446,Reston YMCA,32219,38.955314,-77.368416,YES,NO,,,NO,8,7,368067.0397,143110.0668,
169043984,447,Sunset Hills Rd & Isaac Newton Square,32220,38.951443,-77.34038,YES,NO,,,NO,7,3,370495.7444,142670.9186,
169043985,448,N Lynn St & Fairfax Dr,31917,38.89386,-77.070862,YES,NO,,,NO,9,6,393852.6278,136226.0986,
169043986,449,Georgia Ave & Piney Branch Rd NW,31414,38.967505,-77.027976,YES,NO,,,NO,7,6,397575.5502,144399.3161,
169043987,450,Greensboro & International Dr,32221,38.923083,-77.227417,YES,NO,,,NO,5,6,380279.3743,139492.2688,
169043988,451,Madison & Fairfax St,31918,38.812351,-77.040691,YES,NO,,,NO,5,8,396465.9686,127176.4201,
169043989,452,Sligo Ave & Carroll Ln,32058,38.990874,-77.016311,YES,NO,,,NO,3,12,398586.9233,146993.2565,
169043990,453,15th & W St NW,31125,38.919086,-77.034502,YES,NO,,,NO,5,13,397007.964,139024.5695,
169043991,454,12th St & Pennsylvania Ave SE,31644,38.882489,-76.990121,YES,NO,,,NO,10,8,400857.153,134961.4895,
169043992,455,3rd St & Riggs Rd NE,31412,38.957463,-77.002239,YES,NO,,,NO,7,8,399805.9369,143284.1914,
169043993,456,Carlin Springs Rd & N Thomas St,31919,38.876695,-77.112982,YES,NO,,,NO,5,10,390196.3054,134324.3317,
169043994,457,Towers Crescent Dr & Tysons One Pl,32222,38.915246,-77.220157,YES,NO,,,NO,8,3,380906.8311,138620.7552,
169043995,458,6th & K St NE,31645,38.902877,-76.998405,YES,NO,,,NO,3,14,400138.3509,137224.6728,
169043996,459,Pooks Hill Rd & Linden Ave,32057,39.014716,-77.107143,YES,NO,,,NO,5,8,390720.9504,149645.2817,
169043997,460,Takoma Park Rec Center,32059,38.98265,-76.988311,YES,NO,,,NO,9,6,401012.7742,146080.2499,
169043998,461,New Hampshire & Kirklynn Ave,32061,38.988101,-76.988422,YES,NO,,,NO,6,9,401003.0801,146685.3633,
169043999,462,Wheaton Metro/Georgia Ave & Reedie Dr,32062,39.038341,-77.051023,YES,NO,,,NO,4,15,395582.6515,152263.7011,
169044000,463,Amherst Ave & Elkins St,32063,39.044887,-77.047788,YES,NO,,,NO,7,7,395863.104,152990.2285,
169044001,464,Amherst Ave & Prichard Rd,32064,39.035965,-77.048395,YES,NO,,,NO,4,11,395810.0324,151999.8149,
169044002,465,Grandview & Blueridge Ave,32065,39.043272,-77.053085,YES,NO,,,NO,4,9,395404.4508,152811.1988,
169044003,466,Windham Ln & Amherst Ave,32066,39.032029,-77.04735,YES,NO,,,NO,7,7,395900.2803,151562.8283,
169044004,467,North Shore Dr & Village Rd,32223,38.970412,-77.340787,YES,NO,,,NO,8,3,370468.0662,144776.7717,
169044005,468,Town Center Pkwy & Sunset Hills Rd,32224,38.955171,-77.363094,YES,NO,,,NO,4,7,368528.2658,143092.3444,
169044006,469,3rd & Underwood St NW,31413,38.968834,-77.016258,YES,NO,,,NO,12,7,398591.0791,144546.6017,
169044007,470,18th & Monroe St NE,31521,38.93293,-76.979517,YES,NO,,,NO,14,4,401775.9544,140561.0057,
169044008,471,7th & E St SW,31294,38.88345,-77.021741,YES,NO,,,NO,3,14,398113.6641,135068.3461,
169044009,472,Shady Grove Metro East,32067,39.121327,-77.164969,YES,NO,,,NO,4,15,385734.3593,161487.8106,
169044010,473,Potomac & M St NW,31295,38.905368,-77.065149,YES,NO,,,NO,6,12,394349.1497,137503.2092,
169044011,474,Columbia & Ontario Rd NW,31296,38.924088,-77.040787,YES,NO,,,NO,0,22,396463.1728,139580.0585,
169044012,475,Washington-Lee High School / N Stafford St & Generals Way,31920,38.888282,-77.111066,YES,NO,,,NO,1,14,390364.1257,135610.3726,
169044013,476,Westover Library / Washington Blvd & N McKinley Rd,31921,38.886048,-77.142317,YES,NO,,,NO,9,6,387652.4639,135366.1444,
169044014,477,Columbia Pike & S Taylor St,31923,38.858524,-77.103728,YES,NO,,,NO,6,9,390997.0028,132306.2646,
169044015,478,Columbus Ave & Tribeca St,32068,39.126,-77.1673,YES,NO,,,NO,11,0,385533.7378,162006.9418,
169044016,479,Columbus Ave & Gramercy Blvd,32069,39.12333,-77.16486,YES,NO,,,NO,5,6,385744.1866,161710.1528,
169044017,480,Reston Pkwy & Spectrum Dr,32225,38.964208,-77.35428,YES,NO,,,NO,4,10,369296.1222,144092.5258,
169044018,481,Key West Ave & Great Seneca Hwy,32070,39.105642,-77.20386,YES,NO,,,NO,2,9,382367.3894,159753.3694,
169044019,482,Virginia Ave & 25th St NW,31297,38.8995,-77.054155,YES,NO,,,NO,1,16,395302.3534,136851.1909,
169044020,483,15th & M St NW,31298,38.905424,-77.034674,YES,NO,,,NO,1,14,396992.472,137507.9804,
169044021,484,11th & Girard St NW,31126,38.925636,-77.027112,YES,NO,,,NO,2,16,397649.0456,139751.4587,
169044022,485,Connecticut Ave & R St NW,31299,38.912644,-77.04564,YES,NO,,,NO,0,17,396041.7119,138309.8779,
169044023,486,Wilson Blvd & N Troy St,31924,38.892556,-77.082089,YES,NO,,,NO,0,13,392878.5408,136082.1603,
169044024,487,Nebraska Ave/AU East Campus,31320,38.936298,-77.087128,YES,NO,,,NO,1,18,392446.0274,140938.2887,
169044025,488,15th St & Constitution Ave NW,31321,38.892244,-77.033234,YES,NO,,,NO,18,1,397116.841,136044.8487,
169044026,489,22nd & H St NW,31127,38.899104,-77.048946,YES,NO,,,NO,7,8,395754.1817,136806.9765,
169044027,490,23rd & M St NW,31128,38.905303,-77.050264,YES,NO,,,NO,2,16,395640.2307,137495.1775,
169044028,491,Corporate Blvd & Omega Dr,32071,39.106971,-77.192645,YES,NO,,,NO,7,8,383337.7263,159898.7985,
169044029,492,Key West Ave & Diamondback Dr,32072,39.106152,-77.202354,YES,NO,,,NO,6,5,382497.7742,159809.696,
169044030,261,Fallsgrove Blvd & Fallsgrove Dr,32004,39.096312,-77.192672,YES,NO,,,NO,6,13,383332.8936,158715.5216,
169044031,262,Traville Gateway Dr & Gudelsky Dr,32005,39.093783,-77.202501,YES,NO,,,NO,9,10,382482.0138,158436.6119,
169044032,263,Norfolk Ave & Fairmont St,32000,38.988562,-77.096539,YES,NO,,,NO,6,4,391636.2322,146740.8977,
169044033,264,E Montgomery Ave & Maryland Ave,32007,39.084125,-77.151291,YES,NO,,,NO,6,9,386910.3144,157355.8713,
169044034,265,Cordell & Norfolk Ave,32008,38.98954,-77.098029,YES,NO,,,NO,3,8,391507.261,146849.6029,
169044035,266,Frederick Ave & Horners Ln,32009,39.094772,-77.145213,YES,NO,,,NO,6,4,387438.0622,158536.9647,
169044036,267,Philadelphia & Maple Ave,32010,38.98128,-77.011336,YES,NO,,,NO,8,7,399017.792,145928.1627,
169044037,268,Maple & Ritchie Ave,32011,38.983627,-77.006311,YES,NO,,,NO,14,3,399453.2013,146188.6606,
169044038,269,Silver Spring Metro/Colesville Rd & Wayne Ave,32012,38.99521,-77.02918,YES,NO,,,NO,9,10,397472.1925,147474.8737,
169044039,270,Montgomery & East Ln,32013,38.983525,-77.095367,YES,NO,,,NO,2,9,391737.1856,146181.6346,
169044040,271,Friendship Hts Metro/Wisconsin Ave & Wisconsin Cir,32014,38.961763,-77.085998,YES,NO,,,NO,0,19,392546.6611,143765.0395,
169044041,272,14th & Belmont St NW,31119,38.921074,-77.031887,YES,NO,,,NO,4,11,397234.8156,139245.1718,
169044042,273,3rd & Tingey St SE,31634,38.87501,-77.0024,YES,NO,,,NO,4,14,399791.7418,134131.22,
169044043,274,10th & Florida Ave NW,31120,38.920387,-77.025672,YES,NO,,,NO,0,18,397773.748,139168.7391,
169044044,275,Potomac Ave & 8th St SE,31635,38.876737,-76.994468,YES,NO,,,NO,13,1,400480.0235,134322.9419,
169044045,276,Crabbs Branch Way & Redland Rd,32015,39.120045,-77.156985,YES,NO,,,NO,1,14,386424.5277,161344.2744,
169044046,277,Fallsgrove Dr & W Montgomery Ave,32016,39.099376,-77.188014,YES,NO,,,NO,5,10,383736.5343,159054.8233,
169044047,278,Monroe St & Monroe Pl,32017,39.083673,-77.149162,YES,NO,,,NO,7,7,387094.4331,157305.3907,
169044048,279,Needwood Rd & Eagles Head Ct,32018,39.123513,-77.15741,YES,NO,,,NO,14,1,386388.4392,161729.3311,
169044049,280,East West Hwy & Blair Mill Rd,32019,38.990249,-77.02935,YES,NO,,,NO,5,8,397457.2886,146924.1578,
169044050,281,Crabbs Branch Way & Calhoun Pl,32020,39.107709,-77.152072,YES,NO,,,NO,9,6,386847.1038,159974.1002,
169044051,282,47th & Elm St,32021,38.982456,-77.091991,YES,NO,,,NO,2,13,392029.5703,146062.6651,
169044052,283,Garland Ave & Walden Rd,32022,39.000578,-77.00149,YES,NO,,,NO,8,7,399870.9339,148070.3731,
169044053,284,Montgomery College/W Campus Dr & Mannakee St,32023,39.095661,-77.159048,YES,NO,,,NO,8,13,386241.4112,158637.6492,
169044054,285,Fenton St & Gist Ave,32024,38.989724,-77.023854,YES,NO,,,NO,1,10,397933.4145,146865.7388,
169044055,286,Carroll & Westmoreland Ave,32025,38.975,-77.01121,YES,NO,,,NO,6,9,399028.6236,145231.0206,
169044056,287,Carroll & Ethan Allen Ave,32026,38.977933,-77.006472,YES,NO,,,NO,8,6,399439.207,145556.5721,
169044057,288,Battery Ln & Trolley Trail,32027,38.992375,-77.100104,YES,NO,,,NO,0,15,391327.8386,147164.511,
169044058,289,Norfolk & Rugby Ave,32028,38.990639,-77.100239,YES,NO,,,NO,1,10,391315.9317,146971.8107,
169044059,290,Offutt Ln & Chevy Chase Dr,32029,38.977093,-77.094589,YES,NO,,,NO,5,5,391803.8535,145467.5504,
169044060,291,Broschart & Blackwell Rd,32030,39.102099,-77.200322,YES,NO,,,NO,3,12,382672.5406,159359.3747,
169044061,292,Taft St & E Gude Dr,32031,39.094103,-77.132954,YES,NO,,,NO,9,6,388498.4423,158461.0817,
169044062,293,Fleet St & Ritchie Pkwy,32032,39.076331,-77.141378,YES,NO,,,NO,11,4,387766.6457,156489.2688,
169044063,294,Piccard & W Gude Dr,32033,39.102212,-77.177091,YES,NO,,,NO,9,10,384681.9981,159367.7653,
169044064,295,Ripley & Bonifant St,32034,38.992679,-77.029457,YES,NO,,,NO,8,7,397448.1058,147193.915,
169044065,296,Georgia Ave & Spring St,32035,38.999388,-77.031555,YES,NO,,,NO,5,5,397266.6111,147938.7423,
169044066,297,Fenton St & Ellsworth Dr,32036,38.997033,-77.025608,YES,NO,,,NO,1,14,397781.6847,147677.1522,
169044067,298,King Farm Blvd & Pleasant Dr,32037,39.114688,-77.171487,YES,NO,,,NO,4,13,385169.3335,160751.8343,
169044068,299,King Farm Blvd & Piccard Dr,32038,39.110314,-77.182669,YES,NO,,,NO,2,12,384201.3131,160268.1402,
169044069,301,Calvert St & Woodley Pl NW,31121,38.923583,-77.050046,YES,NO,,,NO,1,18,395660.2519,139524.3987,
169044070,302,New Jersey Ave & N St NW/Dunbar HS,31636,38.90706,-77.015231,YES,NO,,,NO,5,14,398678.935,137689.1288,
169044071,303,Nannie Helen Burroughs Ave & 49th St NE,31710,38.898536,-76.931862,YES,NO,,,NO,2,9,405910.6742,136744.9916,
169044072,304,Deanwood Rec Center,31711,38.908473,-76.933099,YES,NO,,,NO,12,3,405802.5615,137847.9993,
169044073,305,Hains Point/Buckeye & Ohio Dr SW,31273,38.878433,-77.03023,YES,NO,,,NO,16,0,397376.9402,134511.6305,
169044074,306,Arlington Blvd & Fillmore St,31070,38.873755,-77.089233,YES,NO,,,NO,2,9,392256.7382,133995.6873,
169044075,307,Long Bridge Park/Long Bridge Dr & 6th St S,31071,38.86646,-77.04826,YES,NO,,,NO,6,3,395811.773,133183.2107,
169044076,308,Old Georgetown Rd & Southwick St,32039,38.999634,-77.109647,YES,NO,,,NO,0,18,390502.0823,147971.2824,
169044077,309,Friendship Blvd & Willard Ave,32040,38.96115,-77.088659,YES,NO,,,NO,3,16,392315.9696,143697.2115,
169044078,310,North Capitol St & G Pl NE,31637,38.899703,-77.008911,YES,NO,,,NO,3,15,399227.0222,136872.3698,
169044079,311,31st & Woodrow St S,31072,38.837666,-77.09482,YES,NO,,,NO,5,5,391767.761,129990.0404,
169044080,312,Washington Blvd & Walter Reed Dr,31073,38.873219,-77.082104,YES,NO,,,NO,3,12,392875.3089,133935.6068,
169044081,313,TJ Cmty Ctr / 2nd St & S Old Glebe Rd,31074,38.869418,-77.095596,YES,NO,,,NO,10,5,391704.08,133514.8072,
169044082,314,Connecticut Ave & Tilden St NW,31313,38.941154,-77.062036,YES,NO,,,NO,0,15,394621.8626,141475.57,
169044083,315,Medical Center Dr & Key West Ave,32041,39.103091,-77.196442,YES,NO,,,NO,6,9,383008.3894,159468.7697,
169044084,316,Shady Grove Hospital,32042,39.097636,-77.196636,YES,NO,,,NO,10,9,382990.3046,158863.2331,
169044085,317,Veterans Pl & Pershing Dr,32043,38.997445,-77.023894,YES,NO,,,NO,2,8,397930.1735,147722.8481,
169044086,318,Rockville Metro East,32044,39.085394,-77.145803,YES,NO,,,NO,3,10,387385.3603,157495.9731,
169044087,319,1st & H St NW,31638,38.900358,-77.012108,YES,NO,,,NO,11,3,398949.7106,136945.112,
169044088,320,Fort Totten Metro,31515,38.952369,-77.002721,YES,NO,,,NO,5,13,399764.1432,142718.7119,
169044089,321,Takoma Metro,31408,38.975219,-77.016855,YES,NO,,,NO,0,19,398539.4739,145255.4069,
169044090,322,Rhode Island Ave Metro,31516,38.920682,-76.995876,YES,NO,,,NO,8,11,400357.628,139201.1816,
169044091,323,Rolfe St & 9th St S,31075,38.866471,-77.076131,YES,NO,,,NO,3,7,393392.9996,133186.0797,
169044092,324,Shirlington Transit Center / S Quincy & Randolph St,31076,38.839912,-77.087083,YES,NO,,,NO,8,7,392439.7222,130238.6925,
169044093,325,Shady Grove Metro West,32045,39.119765,-77.166093,YES,NO,,,NO,14,5,385636.8464,161314.5845,
169044094,326,River Rd & Landy Ln,32046,38.964992,-77.103381,YES,NO,,,NO,2,14,391040.5048,144125.0512,
169044095,327,Rockville Metro West,32047,39.084379,-77.146866,YES,NO,,,NO,1,18,387293.2101,157383.4432,
169044096,328,Bethesda Metro,32048,38.984691,-77.094537,YES,NO,,,NO,1,11,391809.2327,146310.9972,
169044097,329,Iwo Jima Memorial/N Meade & 14th St N,31077,38.88992,-77.071301,YES,NO,,,NO,13,3,393814.2024,135788.7574,
169044098,330,34th & Water St NW,31314,38.903663,-77.067668,YES,NO,,,NO,10,8,394130.5181,137314.0994,
169044099,331,Duke St & John Carlyle St,31081,38.804378,-77.060866,YES,NO,,,NO,5,8,394713.171,126292.3414,
169044100,332,Lee Hwy & N Cleveland St,31079,38.894941,-77.09169,YES,NO,,,NO,0,15,392045.8923,136347.7067,
169044101,333,Arlington Blvd & S George Mason Dr/NFATC,31078,38.869442,-77.104503,YES,NO,,,NO,5,10,390931.1247,133518.3185,
169044102,334,10th & G St NW,31274,38.898243,-77.026235,YES,NO,,,NO,0,22,397724.2187,136710.5874,
169044103,335,Lee Hwy & N Scott St,31080,38.897612,-77.080851,YES,NO,,,NO,7,6,392986.4379,136643.3202,
169044104,336,New Hampshire Ave & 24th St NW,31275,38.901755,-77.051084,YES,NO,,,NO,3,15,395568.8857,137101.3604,
169044105,337,Eisenhower Ave & Mill Race Ln,31082,38.801111,-77.068952,YES,NO,,,NO,6,9,394010.5462,125930.1835,
169044106,338,Potomac Greens Dr & Slaters Ln,31083,38.82175,-77.047494,YES,NO,,,NO,6,4,395875.6679,128220.0553,
169044107,339,Ballenger Ave & Dulaney St,31084,38.802677,-77.063562,YES,NO,,,NO,11,7,394478.8647,126103.6794,
169044108,340,Mount Vernon Ave & E Nelson Ave,31085,38.820064,-77.057619,YES,NO,,,NO,3,8,394996.3049,128033.4045,
169044109,341,Mount Vernon Ave & E Del Ray Ave,31086,38.82595,-77.058541,YES,NO,,,NO,11,4,394916.6564,128686.84,
169044110,342,Monroe Ave & Leslie Ave,31087,38.820932,-77.053096,YES,NO,,,NO,5,8,395389.143,128129.5199,
169044111,343,Mount Vernon Ave & Kennedy St,31088,38.833077,-77.059821,YES,NO,,,NO,9,6,394806.0275,129478.0567,
169044112,1,Eads St & 15th St S,31000,38.858971,-77.05323,YES,NO,,,NO,8,7,395379.9686,132352.1169,
169044113,2,18th & Eads St.,31001,38.85725,-77.05332,YES,NO,,,NO,3,6,395372.0456,132161.0781,
169044114,3,20th & Crystal Dr,31002,38.856425,-77.049232,YES,NO,,,NO,8,6,395726.8176,132069.2979,
169044115,4,15th & Crystal Dr,31003,38.86017,-77.049593,YES,NO,,,NO,10,0,395695.7098,132485.0368,
169044116,5,Aurora Hills Community Ctr/18th & Hayes St,31004,38.857866,-77.05949,YES,NO,,,NO,8,2,394836.5599,132229.7894,
169044117,6,Pentagon City Metro / 12th & S Hayes St,31005,38.862303,-77.059936,YES,NO,,,NO,17,2,394798.1726,132722.3538,
169044118,7,S Joyce & Army Navy Dr,31006,38.8637,-77.0633,YES,NO,,,NO,13,2,394506.3197,132877.628,
169044119,8,Crystal City Metro / 18th & Bell St,31007,38.857405,-77.051132,YES,NO,,,NO,6,12,395561.9645,132178.1755,
169044120,9,12th & Army Navy Dr,31008,38.8629,-77.0528,YES,NO,,,NO,2,6,395417.5422,132788.2427,
169044121,10,27th & Crystal Dr,31009,38.848441,-77.051516,YES,NO,,,NO,4,13,395528.0734,131183.1266,
169044122,11,S Glebe & Potomac Ave,31010,38.8426,-77.0502,YES,NO,,,NO,9,1,395641.9543,130534.6713,
169044123,12,23rd & Crystal Dr,31011,38.8533,-77.0498,YES,NO,,,NO,15,2,395677.3277,131722.4273,
169044124,13,26th & S Clark St,31012,38.850688,-77.05152,YES,NO,,,NO,1,10,395527.867,131432.5597,
169044125,14,19th St & Pennsylvania Ave NW,31100,38.9003,-77.0429,YES,NO,,,NO,0,15,396278.704,136939.4783,
169044126,15,14th & V St NW,31101,38.9176,-77.0321,YES,NO,,,NO,26,1,397216.209,138859.5351,
169044127,16,11th & Kenyon St NW,31102,38.929464,-77.027822,YES,NO,,,NO,0,27,397587.6091,140176.4181,
169044128,17,16th & Harvard St NW,31103,38.926088,-77.036536,YES,NO,,,NO,0,33,396831.8853,139801.9194,
169044129,18,Adams Mill & Columbia Rd NW,31104,38.922925,-77.042581,YES,NO,,,NO,0,15,396307.5467,139451.0267,
169044130,19,14th & Harvard St NW,31105,38.9268,-77.0322,YES,NO,,,NO,0,19,397207.897,139880.816,
169044131,20,Calvert & Biltmore St NW,31106,38.923203,-77.047637,YES,NO,,,NO,0,23,395869.1268,139482.1037,
169044132,21,Lamont & Mt Pleasant NW,31107,38.9319,-77.0388,YES,NO,,,NO,0,18,396635.8432,140447.1824,
169044133,22,4th & M St SW,31108,38.8767,-77.0178,YES,NO,,,NO,3,15,398455.4549,134318.9706,
169044134,23,15th & P St NW,31201,38.90985,-77.034438,YES,NO,,,NO,18,1,397013.1273,137999.2948,
169044135,24,14th & R St NW,31202,38.912682,-77.031681,YES,NO,,,NO,9,6,397252.3562,138313.5835,
169044136,25,14th & Rhode Island Ave NW,31203,38.9086,-77.0323,YES,NO,,,NO,21,2,397198.511,137860.4668,
169044137,26,20th & E St NW,31204,38.8963,-77.045,YES,NO,,,NO,9,6,396096.3238,136495.5341,
169044138,27,21st & I St NW,31205,38.9008,-77.047,YES,NO,,,NO,12,23,395923.0843,136995.1574,
169044139,28,Georgia & New Hampshire Ave NW,31400,38.936043,-77.024649,YES,NO,,,NO,0,14,397862.9308,140906.6651,
169044140,29,14th St & Spring Rd NW,31401,38.9375,-77.0328,YES,NO,,,NO,0,11,397156.297,141068.6272,
169044141,30,John McCormack Dr & Michigan Ave NE,31502,38.9346,-76.9955,YES,NO,,,NO,10,0,400390.1581,140746.2006,
169044142,31,5th & K St NW,31600,38.90304,-77.019027,YES,NO,,,NO,16,3,398349.5948,137242.9379,
169044143,32,19th & East Capitol St SE,31601,38.8896,-76.9769,YES,NO,,,NO,7,7,402004.0754,135751.0727,
169044144,33,Park Rd & Holmead Pl NW,31602,38.9308,-77.0315,YES,NO,,,NO,0,18,397268.7481,140324.8292,
169044145,34,Good Hope & Naylor Rd SE,31700,38.8601,-76.9672,YES,NO,,,NO,5,6,402846.7901,132476.6085,
169044146,35,Connecticut Ave & Newark St NW / Cleveland Park,31305,38.934267,-77.057979,YES,NO,,,NO,0,11,394973.0937,140710.8214,
169044147,36,Randle Circle & Minnesota Ave SE,31702,38.878,-76.9607,YES,NO,,,NO,7,4,403410.0851,134463.8639,
169044148,37,Minnesota Ave Metro/DOES,31703,38.897063,-76.947446,YES,NO,,,NO,14,1,404558.9245,136580.5833,
169044149,38,Nannie Helen Burroughs & Minnesota Ave NE,31704,38.901385,-76.941877,YES,NO,,,NO,5,4,405041.7154,137060.6526,
169044150,39,Anacostia Metro,31801,38.862669,-76.994637,YES,NO,,,NO,6,3,400465.4508,132761.2885,
169044151,40,Good Hope Rd & MLK Ave SE,31802,38.867373,-76.988039,YES,NO,,,NO,5,6,401038.0179,133283.5213,
169044152,41,19th & E Street NW,31206,38.8952,-77.0436,YES,NO,,,NO,3,8,396217.7132,136373.3665,
169044153,42,4th & W St NE,31500,38.919077,-77.000648,YES,NO,,,NO,4,11,399943.805,139023.0053,
169044154,43,10th & U St NW,31111,38.9172,-77.0259,YES,NO,,,NO,3,10,397753.8756,138814.961,
169044155,44,Georgia Ave and Fairmont St NW,31207,38.9249,-77.0222,YES,NO,,,NO,0,11,398074.9584,139669.6414,
169044156,45,1st & N St  SE,31209,38.8743,-77.0057,YES,NO,,,NO,2,37,399505.3818,134052.4174,
169044157,46,20th St & Florida Ave NW,31110,38.9154,-77.0446,YES,NO,,,NO,3,10,396132.059,138615.7722,
169044158,47,7th & T St NW,31109,38.9155,-77.0222,YES,NO,,,NO,3,8,398074.7047,138626.1622,
169044159,48,Eads & 22nd St S,31013,38.854381,-77.053412,YES,NO,,,NO,10,5,395363.874,131842.6032,
169044160,49,M St & New Jersey Ave SE,31208,38.8763,-77.0037,YES,NO,,,NO,2,13,399678.9411,134274.4235,
169044161,51,Massachusetts Ave & Dupont Circle NW,31200,38.9101,-77.0444,YES,NO,,,NO,15,25,396149.1179,138027.4199,
169044162,52,1st & M St NE,31603,38.9057,-77.0056,YES,NO,,,NO,11,4,399514.2732,137538.0624,
169044163,53,21st & M St NW,31212,38.90534,-77.046774,YES,NO,,,NO,1,15,395942.9464,137499.1239,
169044164,54,17th & K St NW,31213,38.90276,-77.03863,YES,NO,,,NO,10,12,396649.2143,137212.3926,
169044165,55,3rd & H St NW,31604,38.899408,-77.015289,YES,NO,,,NO,11,3,398673.7621,136839.6958,
169044166,56,3rd & D St SE,31605,38.8851,-77.0023,YES,NO,,,NO,6,3,399800.4474,135251.2867,
169044167,57,Potomac & Pennsylvania Ave SE,31606,38.8803,-76.9862,YES,NO,,,NO,10,5,401197.3959,134718.5379,
169044168,58,14th & D St SE,31607,38.884,-76.9861,YES,NO,,,NO,1,13,401206.0102,135129.2676,
169044169,59,17th & Corcoran St NW,31214,38.9121,-77.0387,YES,NO,,,NO,18,1,396643.582,138249.2114,
169044170,60,Van Ness Metro / UDC,31300,38.944551,-77.063896,YES,NO,,,NO,0,14,394460.876,141852.7783,
169044171,61,Florida Ave & R St NW,31503,38.9126,-77.0135,YES,NO,,,NO,3,9,398829.1647,138304.0906,
169044172,62,8th & Eye St SE / Barracks Row,31608,38.8792,-76.9953,YES,NO,,,NO,6,4,400407.815,134596.3495,
169044173,63,Ward Circle / American University,31301,38.938736,-77.087171,YES,NO,,,NO,4,11,392442.5578,141208.9315,
169044174,64,Wisconsin Ave & Newark St NW,31302,38.934881,-77.072755,YES,NO,,,NO,0,18,393692.0368,140779.8981,
169044175,65,14th St Heights / 14th & Crittenden St NW,31402,38.947774,-77.032818,YES,NO,,,NO,8,3,397155.1464,142209.1331,
169044176,66,Anacostia Library,31804,38.865784,-76.9784,YES,NO,,,NO,5,6,401874.5662,133107.2844,
169044177,67,Pennsylvania & Minnesota Ave SE,31805,38.873057,-76.971015,YES,NO,,,NO,10,1,402515.2205,133914.8189,
169044178,68,Eastern Market / 7th & North Carolina Ave SE,31610,38.886952,-76.996806,YES,NO,,,NO,1,12,400277.1106,135456.8754,
169044179,69,14th St & New York Ave NW,31216,38.899632,-77.031686,YES,NO,,,NO,3,20,397251.4198,136864.9275,
169044180,70,Benning Branch Library,31705,38.894,-76.947974,YES,NO,,,NO,7,4,404513.3156,136240.5398,
169044181,71,USDA / 12th & Independence Ave SW,31217,38.887237,-77.02823,YES,NO,,,NO,3,34,397551.1296,135488.8864,
169044182,72,Georgetown Harbor / 30th St NW,31215,38.902221,-77.059219,YES,NO,,,NO,11,6,394863.2754,137153.5164,
169044183,73,12th & Newton St NE,31501,38.933668,-76.991016,YES,NO,,,NO,7,4,400778.9391,140642.7692,
169044184,74,US Dept of State / Virginia Ave & 21st St NW,31220,38.894919,-77.046587,YES,NO,,,NO,3,12,395958.5759,136342.3012,
169044185,75,L'Enfant Plaza / 7th & C St SW,31218,38.886266,-77.022241,YES,NO,,,NO,9,4,398070.3583,135380.9543,
169044186,76,10th St & Constitution Ave NW,31219,38.893028,-77.026013,YES,NO,,,NO,23,7,397743.3113,136131.6756,
169044187,77,Kennedy Center,31211,38.897293,-77.05557,YES,NO,,,NO,5,13,395179.4608,136606.2701,
169044188,78,Eastern Market Metro / Pennsylvania Ave & 7th St SE,31613,38.884,-76.995397,YES,NO,,,NO,14,1,400399.3716,135129.1858,
169044189,79,18th & M St NW,31221,38.905067,-77.041779,YES,NO,,,NO,15,11,396376.1856,137468.6086,
169044190,80,Tenleytown / Wisconsin Ave & Albemarle St NW,31303,38.947607,-77.079382,YES,NO,,,NO,2,12,393118.6949,142193.0751,
169044191,81,13th & H St NE,31611,38.900022,-76.988422,YES,NO,,,NO,3,23,401004.3202,136907.8073,
169044192,82,5th & F St NW,31620,38.897222,-77.019347,YES,NO,,,NO,20,11,398321.7011,136597.0991,
169044193,83,New York Ave & 15th St NW,31222,38.8991,-77.0337,YES,NO,,,NO,6,12,397076.6949,136805.9339,
169044194,84,Convention Center / 7th & M St NW,31223,38.905737,-77.02227,YES,NO,,,NO,1,21,398068.3695,137542.3904,
169044195,85,Harvard St & Adams Mill Rd NW,31112,38.927872,-77.043358,YES,NO,,,NO,2,12,396240.4292,140000.2176,
169044196,86,19th & L St NW,31224,38.903407,-77.043648,YES,NO,,,NO,6,8,396213.9848,137284.411,
169044197,87,C & O Canal & Wisconsin Ave NW,31225,38.90375,-77.06269,YES,NO,,,NO,11,11,394562.3134,137323.4488,
169044198,88,6th & Water St SW / SW Waterfront,31609,38.87675,-77.02127,YES,NO,,,NO,6,9,398154.3567,134324.5854,
169044199,89,D St & Maryland Ave NE,31612,38.894758,-76.997114,YES,NO,,,NO,3,20,400250.3612,136323.4017,
169044200,90,34th St & Wisconsin Ave NW,31226,38.916442,-77.0682,YES,NO,,,NO,3,7,394085.4325,138732.7073,
169044201,91,13th St & New York Ave NW,31227,38.900283,-77.029822,YES,NO,,,NO,8,12,397413.1348,136937.1393,
169044202,92,8th & H St NW,31228,38.8997,-77.023086,YES,NO,,,NO,20,12,397997.4227,136872.2523,
169044203,93,10th & Monroe St NE,31504,38.932514,-76.992889,YES,NO,,,NO,2,7,400616.5545,140514.6508,
169044204,94,Eckington Pl & Q St NE,31505,38.910972,-77.00495,YES,NO,,,NO,1,21,399570.6839,138123.2943,
169044205,95,6th & H St NE,31615,38.899972,-76.998347,YES,NO,,,NO,3,19,400143.3877,136902.1946,
169044206,96,3rd & H St NE,31616,38.900412,-77.001949,YES,NO,,,NO,0,18,399830.9372,136951.0386,
169044207,97,Bladensburg Rd & Benning Rd NE,31617,38.900413,-76.982872,YES,NO,,,NO,3,11,401485.7403,136951.2872,
169044208,98,4th & East Capitol St NE,31618,38.889955,-77.000349,YES,NO,,,NO,0,6,399969.7221,135790.227,
169044209,99,Lincoln Park / 13th & East Capitol St NE,31619,38.890461,-76.988355,YES,NO,,,NO,6,18,401010.2674,135846.4614,
169044210,100,Branch & Pennsylvania Ave SE,31701,38.8692,-76.9599,YES,NO,,,NO,6,4,403479.9307,133487.0282,
169044211,101,13th & D St NE,31622,38.894832,-76.987633,YES,NO,,,NO,10,21,401072.8391,136331.685,
169044212,102,New Hampshire Ave & T St NW,31229,38.91554,-77.03818,YES,NO,,,NO,3,18,396688.8408,138631.0609,
169044213,103,Metro Center / 12th & G St NW,31230,38.898364,-77.027869,YES,NO,,,NO,19,9,397582.4798,136724.0614,
169044214,104,14th & D St NW / Ronald Reagan Building,31231,38.894514,-77.031617,YES,NO,,,NO,10,14,397257.2084,136296.7868,
169044215,105,7th & F St NW/Portrait Gallery,31232,38.897296,-77.022185,YES,NO,,,NO,24,1,398075.5144,136605.3697,
169044216,106,17th & K St NW / Farragut Square,31233,38.902061,-77.038322,YES,NO,,,NO,13,22,396675.8978,137134.7868,
169044217,107,20th & O St NW / Dupont South,31234,38.908905,-77.04478,YES,NO,,,NO,10,8,396116.0948,137894.7812,
169044218,108,4th & D St NW / Judiciary Square,31621,38.895344,-77.016106,YES,NO,,,NO,9,6,398602.8121,136388.5716,
169044219,109,19th St & Constitution Ave NW,31235,38.8923,-77.0436,YES,NO,,,NO,1,32,396217.5594,136051.4436,
169044220,110,37th & O St NW / Georgetown University,31236,38.90774,-77.071652,YES,NO,,,NO,6,17,393785.3036,137766.9431,
169044221,111,11th & H St NE,31614,38.899983,-76.991383,YES,NO,,,NO,2,16,400747.4721,136903.4496,
169044222,112,25th St & Pennsylvania Ave NW,31237,38.903827,-77.053485,YES,NO,,,NO,0,13,395360.7536,137331.4883,
169044223,113,Columbus Circle / Union Station,31623,38.89696,-77.00493,YES,NO,,,NO,28,27,399572.3345,136567.8488,
169044224,114,North Capitol St & F St NW,31624,38.897446,-77.00989,YES,NO,,,NO,6,13,399142.246,136621.8335,
169044225,115,11th & M St NW,31266,38.905607,-77.027137,YES,NO,,,NO,1,18,397646.2168,137528.0736,
169044226,116,36th & Calvert St NW / Glover Park,31304,38.922581,-77.070334,YES,NO,,,NO,1,14,393900.8889,139414.3282,
169044227,117,14th & G St NW,31238,38.898069,-77.031823,YES,NO,,,NO,6,15,397239.4753,136691.4262,
169044228,118,Potomac Ave & 35th St S,31052,38.844015,-77.050537,YES,NO,,,NO,10,13,395612.7851,130691.7623,
169044229,124,Ohio Dr & West Basin Dr SW / MLK & FDR Memorials,31240,38.88412,-77.04657,YES,NO,,,NO,15,7,395959.4391,135143.5273,
169044230,125,11th & F St NW,31262,38.897857,-77.026975,YES,NO,,,NO,2,13,397660.014,136667.7571,
169044231,126,23rd & E St NW,31260,38.896104,-77.049882,YES,NO,,,NO,1,18,395672.8064,136473.9966,
169044232,127,Lynn & 19th St North,31014,38.897315,-77.070993,YES,NO,,,NO,14,16,393841.5616,136609.6397,
169044233,128,Rosslyn Metro / Wilson Blvd & Ft Myer Dr,31015,38.8946,-77.072305,YES,NO,,,NO,3,15,393727.5107,136308.3425,
169044234,129,Clarendon Blvd & Pierce St,31016,38.893438,-77.076389,YES,NO,,,NO,0,12,393373.1141,136179.64,
169044235,130,Wilson Blvd & N Uhle St,31017,38.891696,-77.0846,YES,NO,,,NO,3,12,392660.6158,135986.8924,
169044236,131,N Rhodes & 16th St N,31018,38.892164,-77.079375,YES,NO,,,NO,4,6,393113.9503,136038.437,
169044237,132,Fairfax Village,31706,38.86559,-76.952103,YES,NO,,,NO,5,10,404156.7748,133086.6177,
169044238,133,21st St & Constitution Ave NW,31261,38.892459,-77.046567,YES,NO,,,NO,0,14,395960.1716,136069.221,
169044239,134,Wilson Blvd & N Edgewood St,31019,38.889,-77.0925,YES,NO,,,NO,2,5,391974.9566,135688.2803,
169044240,135,Columbia Rd & Belmont St NW,31113,38.920669,-77.04368,YES,NO,,,NO,1,18,396212.126,139200.6367,
169044241,136,Rhode Island & Connecticut Ave NW,31239,38.905996,-77.039802,YES,NO,,,NO,16,5,396547.711,137571.6585,
169044242,137,Thomas Circle,31241,38.9059,-77.0325,YES,NO,,,NO,0,32,397181.0576,137560.7509,
169044243,138,Wilson Blvd & Franklin Rd,31020,38.8904,-77.0889,YES,NO,,,NO,5,6,392287.4339,135843.3808,
169044244,139,Clarendon Blvd & N Fillmore St,31021,38.8881,-77.09308,YES,NO,,,NO,4,11,391924.5356,135588.4245,
169044245,140,Clarendon Metro / Wilson Blvd & N Highland St,31022,38.88786,-77.094875,YES,NO,,,NO,3,14,391768.7767,135561.9429,
169044246,141,18th St & Pennsylvania Ave NW,31242,38.89968,-77.041539,YES,NO,,,NO,5,22,396396.7306,136870.5987,
169044247,142,Maryland & Independence Ave SW,31243,38.887299,-77.018939,YES,NO,,,NO,26,10,398356.8655,135495.5607,
169044248,143,4th & E St SW,31244,38.88412,-77.017445,YES,NO,,,NO,5,12,398486.4164,135142.6413,
169044249,144,3rd & G St SE,31625,38.881185,-77.001828,YES,NO,,,NO,4,14,399841.3904,134816.6907,
169044250,145,7th & R St NW / Shaw Library,31245,38.912719,-77.022155,YES,NO,,,NO,1,13,398078.5324,138317.4472,
169044251,146,9th & Upshur St NW,31404,38.9418,-77.0251,YES,NO,,,NO,0,14,397824.0048,141545.7535,
169044252,147,1st & Rhode Island Ave NW,31506,38.915417,-77.012289,YES,NO,,,NO,0,10,398934.235,138616.7862,
169044253,148,Columbia Rd & Georgia Ave NW,31115,38.928121,-77.023795,YES,NO,,,NO,0,18,397936.7434,140027.2348,
169044254,149,California St & Florida Ave NW,31116,38.917761,-77.04062,YES,NO,,,NO,1,16,396477.3416,138877.7017,
169044255,150,Benning Rd & East Capitol St NE / Benning Rd Metro,31707,38.889935,-76.93723,YES,NO,,,NO,7,12,405445.6802,135789.879,
169044256,151,3000 Connecticut Ave NW / National Zoo,31307,38.930282,-77.055599,YES,NO,,,NO,1,14,395179.1755,140268.3235,
169044257,152,Anacostia Ave & Benning Rd NE / River Terrace,31708,38.896544,-76.96012,YES,NO,,,NO,8,5,403459.5128,136522.4136,
169044258,153,M St & Pennsylvania Ave NW,31246,38.905126,-77.056887,YES,NO,,,NO,7,6,395065.7567,137475.8662,
169044259,154,15th St & Massachusetts Ave SE,31626,38.88732,-76.983569,YES,NO,,,NO,3,12,401425.5418,135497.8497,
169044260,155,Congress Heights Metro,31806,38.844711,-76.987823,YES,NO,,,NO,3,10,401057.0987,130767.8792,
169044261,156,N Quincy St & Glebe Rd,31035,38.876393,-77.107735,YES,NO,,,NO,6,5,390651.5592,134290.257,
169044262,157,Barcroft Community Center,31033,38.850337,-77.100989,YES,NO,,,NO,9,2,391233.7268,131397.1831,
169044263,158,N Veitch  & 20th St N,31029,38.896923,-77.086502,YES,NO,,,NO,4,10,392496.1597,136567.2851,
169044264,159,10th & K St NW,31263,38.9024,-77.02622,YES,NO,,,NO,3,18,397725.6524,137172.0474,
169044265,160,Fairfax Dr & Wilson Blvd,31023,38.885801,-77.097745,YES,NO,,,NO,7,3,391519.5349,135333.6408,
169044266,161,Key Blvd & N Quinn St,31027,38.896015,-77.078107,YES,NO,,,NO,8,2,393224.3193,136465.8334,
169044267,162,1st & K St SE,31628,38.87861,-77.006004,YES,NO,,,NO,0,10,399479.0337,134530.8616,
169044268,163,39th & Calvert St NW / Stoddert,31306,38.922649,-77.077271,YES,NO,,,NO,0,18,393299.3438,139422.3631,
169044269,164,1st & Washington Hospital Center NW,31507,38.928743,-77.012457,YES,NO,,,NO,3,11,398919.8671,140096.0869,
169044270,165,Virginia Square Metro / N Monroe St & 9th St N,31024,38.882788,-77.103148,YES,NO,,,NO,8,11,391050.3869,134999.6906,
169044271,166,Central Library / N Quincy St & 10th St N,31025,38.88397,-77.10783,YES,NO,,,NO,0,9,390644.3093,135131.371,
169044272,167,Washington Blvd & 10th St N,31026,38.884734,-77.093485,YES,NO,,,NO,7,7,391889.0158,135214.8085,
169044273,168,Jefferson Dr & 14th St SW,31247,38.888553,-77.032429,YES,NO,,,NO,15,5,397186.5319,135635.0937,
169044274,169,Smithsonian-National Mall / Jefferson Dr & 12th St SW,31248,38.888767,-77.02858,YES,NO,,,NO,13,9,397520.47,135658.7378,
169044275,170,George Mason Dr & Wilson Blvd,31036,38.87887,-77.1207,YES,NO,,,NO,1,12,389526.9173,134566.6302,
169044276,171,6th St & Indiana Ave NW,31264,38.894573,-77.01994,YES,NO,,,NO,16,2,398270.1958,136303.0502,
169044277,172,N Veitch & Key Blvd,31028,38.893241,-77.086045,YES,NO,,,NO,1,10,392535.4181,136158.5167,
169044278,173,Lee Hwy & N Adams St,31030,38.89593,-77.089006,YES,NO,,,NO,0,16,392278.8363,136457.2631,
169044279,174,15th & N Scott St,31031,38.89054,-77.08095,YES,NO,,,NO,4,7,392977.1539,135858.2803,
169043805,175,Washington Blvd & 7th St N,31032,38.880834,-77.091129,YES,NO,,,NO,4,6,392092.9958,134781.6721,
169043806,176,Ballston Metro / N Stuart & 9th St N,31037,38.881044,-77.111768,YES,NO,,,NO,0,23,390302.2378,134806.9737,
169043807,177,N Randolph St & Fairfax Dr,31034,38.882629,-77.109366,YES,NO,,,NO,4,7,390510.8626,134982.6683,
169043808,178,Jefferson Memorial,31249,38.879819,-77.037413,YES,NO,,,NO,17,5,396753.7338,134665.7179,
169043809,179,Good Hope Rd & 14th St SE,31803,38.866611,-76.985238,YES,NO,,,NO,8,7,401281.1123,133198.9693,
169043810,180,Glebe Rd & 11th St N,31038,38.883921,-77.116817,YES,NO,,,NO,0,11,389864.5607,135126.891,
169043811,181,Wilson Blvd & N Quincy St,31039,38.880012,-77.107854,YES,NO,,,NO,7,8,390641.7079,134692.0054,
169043812,182,Fairfax Dr & Kenmore St,31040,38.884616,-77.10108,YES,NO,,,NO,5,6,391230.041,135202.4118,
169043813,183,Gallaudet / 8th St & Florida Ave NE,31508,38.90509,-76.9941,YES,NO,,,NO,4,15,400511.7523,137470.3491,
169043814,185,20th & L St NW,31250,38.903584,-77.044789,YES,NO,,,NO,4,15,396115.0244,137304.1074,
169043815,186,12th & L St NW,31251,38.903819,-77.0284,YES,NO,,,NO,0,18,397536.6062,137329.6244,
169043816,187,21st St & Pennsylvania Ave NW,31252,38.901539,-77.046564,YES,NO,,,NO,6,12,395960.946,137077.173,
169043817,188,19th & K St NW,31253,38.902204,-77.04337,YES,NO,,,NO,11,11,396238.035,137150.8568,
169043818,189,Prince St & Union St,31041,38.803124,-77.040363,YES,NO,,,NO,16,3,396494.0027,126152.1522,
169043819,190,Market Square / King St & Royal St,31042,38.804718,-77.043363,YES,NO,,,NO,12,1,396233.5018,126329.2156,
169043820,191,Saint Asaph St & Pendleton  St,31043,38.810743,-77.044664,YES,NO,,,NO,8,7,396120.8245,126998.0832,
169043821,192,King St & Patrick St,31044,38.805317,-77.049883,YES,NO,,,NO,7,6,395667.2127,126395.9976,
169043822,193,15th & K St NW,31254,38.902,-77.03353,YES,NO,,,NO,2,24,397091.5598,137127.8517,
169043823,194,Commerce St & Fayette St,31045,38.805648,-77.05293,YES,NO,,,NO,10,5,395402.5747,126432.8897,
169043824,195,Henry St & Pendleton St,31046,38.811456,-77.050276,YES,NO,,,NO,15,1,395633.4525,127077.4842,
169043825,196,Braddock Rd Metro,31047,38.814577,-77.052808,YES,NO,,,NO,11,16,395413.7448,127424.0593,
169043826,197,King St Metro South,31048,38.805767,-77.06072,YES,NO,,,NO,10,12,394725.9552,126446.5207,
169043827,198,24th & N St NW,31255,38.9066,-77.05152,YES,NO,,,NO,0,15,395531.3698,137639.2158,
169043828,199,10th & E St NW,31256,38.895914,-77.026064,YES,NO,,,NO,8,4,397738.9784,136452.0457,
169043829,200,22nd & I St NW / Foggy Bottom,31257,38.90088,-77.048911,YES,NO,,,NO,9,4,395757.3234,137004.1251,
169043830,201,Utah St & 11th St N,31049,38.883669,-77.113905,YES,NO,,,NO,3,7,390117.1807,135098.5978,
169043831,202,Barton St & 10th St N,31050,38.884961,-77.08777,YES,NO,,,NO,5,6,392384.8871,135239.515,
169043832,203,Arlington Blvd & N Queen St,31051,38.889365,-77.077294,YES,NO,,,NO,8,3,393294.2209,135727.5712,
169043833,204,Lincoln Memorial,31258,38.888251,-77.049426,YES,NO,,,NO,5,18,395711.8918,135602.2305,
169043834,206,20th St & Virginia Ave NW,31259,38.894722,-77.045128,YES,NO,,,NO,4,10,396085.1334,136320.3691,
169043835,207,5th St & Massachusetts Ave NW,31265,38.90093,-77.018677,YES,NO,,,NO,5,12,398379.906,137008.7047,
169043836,208,39th & Veazey St NW,31308,38.943837,-77.077078,YES,NO,,,NO,4,10,393318.066,141774.4003,
169043837,209,Fessenden St & Wisconsin Ave NW,31309,38.954812,-77.082426,YES,NO,,,NO,7,8,392855.5451,142993.1291,
169043838,210,M St & Delaware Ave NE,31627,38.905707,-77.003041,YES,NO,,,NO,11,11,399736.233,137538.8289,
169043839,211,Columbia Pike & S Courthouse Rd,31053,38.863833,-77.080319,YES,NO,,,NO,3,12,393029.288,132893.5539,
169043840,212,Walter Reed Community Center / Walter Reed Dr & 16th St S,31054,38.857803,-77.086733,YES,NO,,,NO,6,5,392471.9951,132224.6897,
169043841,213,28th St S & S Meade St,31055,38.846222,-77.069275,YES,NO,,,NO,11,4,393986.2891,130937.822,
169043842,214,18th St & Wyoming Ave NW,31114,38.918809,-77.041571,YES,NO,,,NO,0,23,396394.9217,138994.0757,
169043843,215,5th & Kennedy St NW,31403,38.956556,-77.019814,YES,NO,,,NO,6,8,398282.6198,143183.69,
169043844,216,Georgia Ave & Emerson St NW,31405,38.949662,-77.027333,YES,NO,,,NO,13,6,397630.6806,142418.5615,
169043845,217,14th & Upshur St NW,31406,38.942016,-77.032652,YES,NO,,,NO,5,14,397169.3077,141569.9385,
169043846,218,14th St & Colorado Ave NW,31407,38.956432,-77.032947,YES,NO,,,NO,1,18,397144.3109,143170.2538,
169043847,219,S Troy St & 26th St S,31056,38.847977,-77.075104,YES,NO,,,NO,9,2,393480.4384,131133.0394,
169043848,220,S Four Mile Run Dr & S Shirlington Rd,31057,38.8444,-77.085931,YES,NO,,,NO,5,6,392540.2043,130736.7966,
169043849,221,S Oakland St & Columbia Pike,31058,38.860789,-77.09586,YES,NO,,,NO,6,4,391680.164,132556.9494,
169043850,222,S Four Mile Run & Walter Reed Dr,31059,38.84736,-77.095431,YES,NO,,,NO,5,5,391715.8392,131066.1963,
169043851,223,S Arlington Mill Dr & Campbell Ave,31060,38.84232,-77.089555,YES,NO,,,NO,7,7,392225.3731,130506.2046,
169043852,224,S Kenmore & 24th St S,31061,38.848454,-77.084918,YES,NO,,,NO,5,6,392628.5629,131186.7364,
169043853,225,13th St & Eastern Ave,32006,38.987,-77.029417,YES,NO,,,NO,4,9,397451.3679,146563.4885,
169043854,226,Wisconsin Ave & O St NW,31312,38.90849,-77.063586,YES,NO,,,NO,13,6,394484.9615,137849.681,
169043855,227,S George Mason Dr & 13th St S,31062,38.854691,-77.100555,YES,NO,,,NO,8,3,391271.9323,131880.4662,
169043856,228,Connecticut & Nebraska Ave NW,31310,38.955016,-77.069956,YES,NO,,,NO,4,18,393936.4269,143014.8728,
169043857,229,17th St & Massachusetts Ave NW,31267,38.908142,-77.038359,YES,NO,,,NO,6,12,396672.972,137809.8284,
169043858,230,15th & Euclid St  NW,31117,38.92333,-77.0352,YES,NO,,,NO,0,15,396947.6147,139495.7125,
169043859,231,8th & East Capitol St NE,31629,38.889988,-76.995193,YES,NO,,,NO,4,6,400417.0363,135793.9012,
169043860,232,New Jersey Ave & R St NW,31509,38.912659,-77.017669,YES,NO,,,NO,1,14,398467.5947,138310.7019,
169043861,233,15th & East Capitol St NE,31630,38.889908,-76.983326,YES,NO,,,NO,9,2,401446.5718,135785.1417,
169043862,234,8th & F St NE,31631,38.897274,-76.994749,YES,NO,,,NO,0,14,400455.5094,136602.7068,
169043863,235,18th St & Rhode Island Ave NE,31510,38.927095,-76.978924,YES,NO,,,NO,6,9,401827.5193,139913.282,
169043864,236,15th & F St NE,31632,38.897195,-76.983575,YES,NO,,,NO,9,10,401424.824,136594.0523,
169043865,237,12th & Irving St NE,31511,38.928644,-76.990955,YES,NO,,,NO,3,12,400784.2832,140085.0622,
169043866,239,Alabama & MLK Ave SE,31800,38.843222,-76.999388,YES,NO,,,NO,2,9,400053.1295,130602.5195,
169043867,240,Pleasant St & MLK Ave SE,31807,38.863897,-76.990037,YES,NO,,,NO,9,2,400864.6665,132897.639,
169043868,241,Neal St & Trinidad Ave NE,31512,38.903732,-76.987211,YES,NO,,,NO,5,9,401109.3092,137319.6612,
169043869,242,12th & U St NW,31268,38.916787,-77.028139,YES,NO,,,NO,3,26,397559.6888,138769.172,
169043870,243,S George Mason Dr & Four Mile Run,31063,38.852248,-77.105022,YES,NO,,,NO,6,4,390883.8896,131609.7125,
169043871,244,S Stafford & 34th St S,31064,38.834108,-77.087323,YES,NO,,,NO,3,8,392418.2699,129594.429,
169043872,245,N Pershing Dr & Wayne St,31065,38.880705,-77.08596,YES,NO,,,NO,0,11,392541.4816,134766.9171,
169043873,246,Columbia Pike & S Orme St,31066,38.867262,-77.072315,YES,NO,,,NO,4,7,393724.2392,133273.6172,
169043874,247,3rd St & Pennsylvania Ave SE,31269,38.887378,-77.001955,YES,NO,,,NO,7,6,399830.3857,135504.1617,
169043875,248,8th & D St NW,31270,38.894851,-77.02324,YES,NO,,,NO,11,0,397983.9271,136333.9781,
169043876,249,3rd & Elm St NW,31118,38.917622,-77.01597,YES,NO,,,NO,3,10,398615.0427,138861.609,
169043877,250,Rhode Island Ave & V St NE,31513,38.918155,-77.004746,YES,NO,,,NO,2,17,399588.4184,138920.666,
169043878,251,Constitution Ave & 2nd St NW/DOL,31271,38.892275,-77.013917,YES,NO,,,NO,5,19,398792.6549,136047.8572,
169043879,252,Washington & Independence Ave SW/HHS,31272,38.886978,-77.013769,YES,NO,,,NO,23,8,398805.4057,135459.8469,
169043880,253,Independence Ave & L'Enfant Plaza SW/DOE,31633,38.887312,-77.025762,YES,NO,,,NO,4,7,397764.9071,135497.1487,
169043881,254,Hamlin & 7th St NE,31514,38.927497,-76.997194,YES,NO,,,NO,1,14,400243.3095,139957.7003,
169043882,255,Columbia Pike & S Walter Reed Dr,31067,38.862478,-77.086599,YES,NO,,,NO,8,4,392484.1179,132743.6373,
169043883,256,Columbia Pike & S Dinwiddie St / Arlington Mill Community Center,31068,38.856319,-77.11153,YES,NO,,,NO,9,6,390319.5351,132062.2923,
169043884,257,Pershing & N George Mason Dr,31069,38.871822,-77.107906,YES,NO,,,NO,0,9,390636.1213,133782.8596,
169043885,258,Fenton St & New York Ave,32001,38.985404,-77.023082,YES,NO,,,NO,2,13,398000.1753,146386.1589,
169043886,259,Bethesda Ave & Arlington Rd,32002,38.981103,-77.097426,YES,NO,,,NO,2,16,391558.5023,145912.9575,
169043887,260,Montgomery Ave & Waverly St,32003,38.983838,-77.09221,YES,NO,,,NO,5,4,392010.7503,146216.0997,
169043888,344,Court House Metro / 15th & N Uhle St,31089,38.890612,-77.084801,YES,NO,,,NO,9,12,392643.0665,135866.5762,
169043889,345,Washington Adventist U / Flower Ave & Division St,32049,38.986743,-77.000035,YES,NO,,,NO,8,7,399996.9677,146534.5483,
169043890,346,6th & S Ball St,31090,38.864702,-77.048672,YES,NO,,,NO,7,8,395775.9137,132988.0787,
169043891,347,McKinley St & Connecticut Ave NW,31315,38.96497,-77.075946,YES,NO,,,NO,4,15,393418.1513,144120.2736,
169043892,348,15th & L St NW,31276,38.90366,-77.034846,YES,NO,,,NO,1,21,396977.4784,137312.1678,
169043893,349,17th & G St NW,31277,38.89841,-77.039624,YES,NO,,,NO,8,23,396562.7846,136729.5447,
169043894,350,Spring St & Second Ave,32050,38.997653,-77.034499,YES,NO,,,NO,4,10,397011.5202,147746.232,
169043895,351,18th & R St NW,31278,38.912648,-77.041834,YES,NO,,,NO,4,15,396371.8007,138310.1638,
169043896,352,S Joyce & 16th St S,31091,38.859254,-77.063275,YES,NO,,,NO,12,2,394508.1473,132384.0883,
169043897,353,Union Market/6th St & Neal Pl NE,31517,38.908008,-76.996985,YES,NO,,,NO,18,4,400261.5034,137794.2586,
169043898,354,Lee Hwy & N Monroe St,31092,38.896456,-77.104562,YES,NO,,,NO,4,11,390929.4394,136517.0839,
169043899,355,21st St N & N Pierce St,31093,38.898984,-77.078317,YES,NO,,,NO,4,9,393206.3848,136795.4315,
169043900,356,Lee Hwy & N Kirkwood Rd,31094,38.895377,-77.09713,YES,NO,,,NO,5,10,391574.024,136396.5942,
169043901,357,19th & G St NW,31279,38.898412,-77.043182,YES,NO,,,NO,1,22,396254.1432,136729.9067,
169043902,358,2nd St & Seaton Pl NE,31522,38.914751,-77.00356,YES,NO,,,NO,4,15,399691.2557,138542.7889,
169043903,359,Wilson Blvd & N Illinois St,31902,38.876528,-77.12712,YES,NO,,,NO,0,15,388969.4952,134307.4068,
169043904,364,Army Navy Dr & S Nash St,31095,38.862756,-77.067185,YES,NO,,,NO,2,9,394169.0712,132773.0781,
169043905,365,31st & Water St NW,31293,38.902814,-77.061043,YES,NO,,,NO,8,11,394705.1035,137219.4484,
169043906,367,11th & S St NW,31280,38.913761,-77.027025,YES,NO,,,NO,9,11,397656.1993,138433.2316,
169043907,368,S Walter Reed Dr & 8th St S,31096,38.86612,-77.08787,YES,NO,,,NO,10,5,392374.1977,133148.0312,
169043908,369,2nd & G St NE,31639,38.89967,-77.003666,YES,NO,,,NO,0,21,399681.9955,136868.6752,
169043909,370,8th & O St NW,31281,38.90864,-77.02277,YES,NO,,,NO,7,11,398025.0815,137864.6578,
169043910,371,Georgia & Missouri Ave NW,31411,38.961339,-77.027855,YES,NO,,,NO,5,14,397585.8274,143714.8292,
169043911,373,Oklahoma Ave & D St NE,31712,38.894474,-76.974828,YES,NO,,,NO,7,10,402183.6857,136292.1726,
169043912,374,Maryland Ave & E St NE,31640,38.896134,-76.9929,YES,NO,,,NO,3,16,400615.9148,136476.1686,
169043913,375,New York Ave & Hecht Ave NE,31518,38.915604,-76.983683,YES,NO,,,NO,12,10,401415.09,138637.5995,
169043914,376,Yuma St & Tenley Circle NW,31316,38.946182,-77.08059,YES,NO,,,NO,4,14,393013.8386,142034.9791,
169043915,377,Connecticut Ave & Chevy Chase Lake Dr,32051,38.994113,-77.076986,YES,NO,,,NO,6,8,393330.7482,147355.5038,
169043916,378,Key West Ave & Siesta Key Way,32052,39.105295,-77.194774,YES,NO,,,NO,11,4,383153.1879,159713.1322,
169043917,379,Lee Hwy & N Woodstock St,31900,38.898301,-77.118009,YES,NO,,,NO,2,17,389763.2023,136723.3155,
169043918,380,Saint Asaph & Madison St,31097,38.812718,-77.044097,YES,NO,,,NO,10,3,396170.1757,127217.2968,
169043919,381,King St Metro North / Cameron St,31098,38.80704,-77.059817,YES,NO,,,NO,6,9,394804.4809,126587.7799,
169043920,382,Madison & N Henry St,31099,38.813485,-77.049468,YES,NO,,,NO,6,9,395703.7505,127302.6778,
169043921,383,Medical Center Metro,32053,38.999378,-77.097882,YES,NO,,,NO,6,12,391521.1673,147941.7054,
169043922,384,Washington Blvd & N Frederick St,31901,38.884829,-77.127671,YES,NO,,,NO,5,6,388922.9724,135228.947,
169043923,385,Wisconsin Ave & Ingomar St NW,31317,38.958267,-77.084636,YES,NO,,,NO,1,18,392664.3441,143376.841,
169043924,386,16th & Irving St NW,31122,38.928893,-77.03625,YES,NO,,,NO,0,19,396856.8086,140113.2886,
169043925,387,16th & R St NW,31282,38.912652,-77.036278,YES,NO,,,NO,14,4,396853.6643,138310.4017,
169043926,388,Lyttonsville Rd & Lyttonsville Pl,32054,38.999679,-77.051168,YES,NO,,,NO,4,10,395567.6923,147971.816,
169043927,389,Woodmont Ave & Strathmore St,32055,38.979875,-77.093522,YES,NO,,,NO,2,8,391896.6255,145776.2839,
169043928,390,14th & L St NW,31283,38.903658,-77.031737,YES,NO,,,NO,1,17,397247.1512,137311.8475,
169043929,391,1st & O St NW,31519,38.908643,-77.012365,YES,NO,,,NO,3,12,398927.5421,137864.8171,
169043930,392,South Capitol & Atlantic St SW,31811,38.831516,-77.008133,YES,NO,,,NO,15,4,399293.8349,129303.1048,
169043931,393,18th & C St NW,31284,38.893511,-77.041544,YES,NO,,,NO,4,15,396395.9852,136185.791,
169043932,394,22nd & P ST NW,31285,38.909394,-77.048728,YES,NO,,,NO,9,8,395773.7018,137949.2396,
169043933,395,East West Hwy & 16th St,32056,38.995681,-77.038721,YES,NO,,,NO,4,14,396645.6961,147527.4668,
169043934,396,Royal & Wilkes St,31903,38.799267,-77.0447,YES,NO,,,NO,10,4,396117.074,125724.1768,
169043935,397,14th & Girard St NW,31123,38.925284,-77.032375,YES,NO,,,NO,0,23,397192.6628,139712.5324,
169043936,398,Potomac Ave & Main Line Blvd,31910,38.822738,-77.049265,YES,NO,,,NO,15,1,395721.9352,128329.8113,
169043937,399,11th & O St NW,31286,38.90843,-77.02714,YES,NO,,,NO,1,18,397646.0498,137841.4497,
169043938,400,10th St & L'Enfant Plaza SW,31287,38.884377,-77.025791,YES,NO,,,NO,4,19,397762.299,135171.3418,
169043939,401,Connecticut Ave & Yuma St NW,31318,38.947156,-77.065115,YES,NO,,,NO,5,14,394355.4076,142142.0313,
169043940,402,2nd St & Massachusetts Ave NE,31641,38.894972,-77.003135,YES,NO,,,NO,8,12,399728.0388,136347.1581,
169043941,403,Radford & Osage St,31908,38.828437,-77.086031,YES,NO,,,NO,2,21,392529.8532,128964.8036,
169043942,404,East Falls Church Metro/Sycamore St & 19th St N,31904,38.884859,-77.155988,YES,NO,,,NO,1,15,386466.1326,135236.0943,
169043943,405,Kennebec St & 11th St N,31905,38.880992,-77.135271,YES,NO,,,NO,10,5,388262.9483,134803.9606,
